[
  {
    "name": "Arcisstraße",
    "pm25": "61",
    "pm10":  "17",
    "pm1": "42",
    "lon":  "11.566966",
    "lat": "48.148612"
  },
  {
    "name": "Lothstraße",
    "pm10": "26",
    "o3":  "1",
    "no2": "17",
    "lon": "11.55466",
    "lat": "48.15455"
  },
  {
    "name": "Stachus",
    "pm10": "34",
    "o3": "1",
    "no2": "19",
    "lon": "11.56481",
    "lat": "48.13732"
  },
  {
    "name": "Landshuter Allee",
    "pm10": "37",
    "o3": "1",
    "no2": "22",
    "lon": "11.53653",
    "lat": "48.14955"
  },
  {
    "name": "Johanneskirchen",
    "pm10": "13",
    "o3": "1",
    "no2": "14",
    "lon": "11.64804",
    "lat": "48.17319"
  }
]